Address,Cost_Electric,GSF,Reading_Total_Electric,building_id,latitude,longitude
105 E Main Street - 5409,3000.46,2400.0,15820.900000000001,5409,42.4570698,-83.9461747
109 East Madison Building - 0858,36145.380000000005,22318.0,223754.68,0858,42.2743479,-83.7478809
1100 North University Building (aka NUB) - 0188,593338.62,187154.0,5159466.0,0188,42.2776451,-83.73540589999999
1443 Washtenaw Ave Building (aka Old Trotter House) - 0886,8821.48,13799.0,45114.67,0886,42.2747411,-83.7297092
1580 Ellsworth Road - 5209,10252.36,11823.0,53786.51,5209,42.2292997,-83.7215368
1736 Broadway - 0885,880.9499999999999,2970.0,3850.3100000000004,0885,42.2967825,-83.7223684
1776 Ellsworth Rd - 5374,4504.72,10190.0,22640.54,5374,42.2293102,-83.72102129999999
1910 E Ellsworth Rd - 5505,75803.08,12112.0,477877.9699999999,5505,42.2293039,-83.7201516
202 South Thayer (aka  Thayer) - 5179,46092.005,59825.0,400800.0,5179,42.2800926,-83.7399659
210-212 S. Fifth Ave - 5497,39545.54,13711.0,243286.99000000002,5497,42.279903,-83.7464628
214 S State St - 5351,4838.72,4119.0,24889.58,5351,42.27967,-83.74096630000001
300 North Ingalls Building (aka 300 NIB) - 0332,200368.11000000002,325677.0,1973620.48,0332,42.2834839,-83.7378367
305 W Liberty - 5324,19888.22,19000.0,116938.28000000001,5324,42.2790058,-83.7516192
317 Maynard St - 5516,137592.84,42204.0,1039872.0,5516,42.2787513,-83.7418801
320 W Ann - 8157,599.4,3000.0,2461.93,8157,42.2826484,-83.75110409999999
3520 Green Court - 5574,214194.24,112145.0,1362692.62,5574,42.3006287,-83.69142579999999
3915 Research Park Drive - 5352,1200.45,2680.0,6237.650000000001,5352,42.23636440000001,-83.7323038
439 S Division Street - 5327,278.46000000000004,3210.0,195.72,5327,42.27648240000001,-83.74392209999999
555 SOUTH FOREST BUILDING - 0879,10110.24,3850.0,53820.17999999999,0879,42.2752767,-83.73286829999999
617 E HURON - 5622,824.77,8532.0,4047.1400000000003,5622,42.28143,-83.74112939999999
725 State Circle - 5372,20516.45,24582.0,121530.40000000001,5372,42.2341563,-83.74371169999999
7300 W Joy Road - 5506,166884.26,147152.0,1263304.0,5506,42.3428577,-83.875711
802 MONROE RENTAL PROPERTY - 5577,2922.49,3010.0,15076.249999999998,5577,42.27312,-83.73920849999999
804 MONROE RENTAL PROPERTY - 5578,1263.53,2717.0,2934.88,5578,42.2731164,-83.7390556
Administrative Services - 0815,336504.72500000003,91653.0,2926128.0,0815,42.2690582,-83.7471453
Alice Lloyd Hall (aka ALH) - 0059,157822.78499999997,176615.0,1372372.0,0059,42.2812445,-83.73179879999999
Alumni Center - 0192,31532.075000000004,35315.0,274192.0,0192,42.2801585,-83.7376019
Alumni Field At Carol Hutchins Stadium - 5123,20911.14,12209.0,181836.0,5123,42.2667552,-83.74055059999999
Angell & Tisch Halls - 0152,200853.36,238549.0,1746551.0,0152,42.276754,-83.7407538
Animal Research Facility (aka ARF) - 0168,5460.910000000002,15591.0,47486.280000000006,0168,42.2836483,-83.73378579999999
Ann Arbor Plaza - 5081,3626.75,1000.0,18734.33,5081,42.2747799,-83.7334323
Arbor Lakes 1 - 8079,153960.42,39867.0,1592361.47,8079,42.3117412,-83.6736627
Arbor Lakes 2 - 8080,325534.97,89277.0,3366899.9000000004,8080,42.3096531,-83.6765812
Arbor Lakes 3 - 8081,335972.95,84893.0,3474856.63,8081,42.3096372,-83.6766354
Argus I - 0830,36214.14,36038.0,203684.97,0830,42.277385,-83.754115
Argus II - 0831,72594.68,69214.0,349132.0,0831,42.2778073,-83.75543329999999
Art & Architecture (aka A&A) - 0432,367241.47,264419.0,3193404.0,0432,42.2899012,-83.71729839999999
Ath Crew Boathouse Facility - 3546,8112.080000000001,7454.0,38991.79,3546,42.2046785,-83.492821
Athletic Department Operations Center - 5371,50423.509999999995,18674.0,317721.39,5371,42.2622328,-83.7407393
Atrium IV Office Center - 5447,5685.19,4753.0,28543.46,5447,42.2394045,-83.7332784
Aux Services - 2501,260339.85,80622.0,2287136.0,2501,42.2993966,-83.6939366
Bahna Wrestling  Center - 5236,49568.079999999994,22072.0,312037.21,5236,42.2521181,-83.7430608
Baits I Complex - 0510,43126.72,165366.0,375015.0,0510,42.2928711,-83.7244666
Baits II Complex - 0515,79483.40000000001,169800.0,691160.0,0515,42.2937065,-83.7238639
Base Lake Farm Storage & Shop - 3511,943.31,5630.0,3242.96,3511,42.416465,-83.89976899999999
Bentley Historical Library (aka Bentley) - 0439,128064.09999999999,66537.0,1113601.0,0439,42.2895809,-83.7125093
Betsy Barbour - 0051,18295.8,33925.0,159094.0,0051,42.2772778,-83.741557
Biological Science Building (aka BSB) - 5169,930615.2700000001,312211.0,8092307.0,5169,42.2789121,-83.7344404
Biomedical Science Research Building (aka BSRB) - 5037,2474506.5700000003,593717.0,21517448.0,5037,42.2817049,-83.73405360000001
Biostation (aka Pellston Biological Station) - 4001,70073.85999999999,127255.0,432117.0,4001,45.558653,-84.67759769999999
Blau Hall - 5370,236317.32,106172.0,2054933.0,5370,42.2731115,-83.736071
"Bob and Betty Beyster Building (aka BBBB, CSE, Computer Science Engineering Building) - 5092",250847.65000000002,104132.0,2181283.82,5092,42.2930138,-83.71637199999999
Bonisteel Interdisciplinary Research (aka BIRB) - 0402,261553.69999999998,21993.0,2274380.0,0402,42.2899384,-83.7135256
Boyer Building (aka Boyer) - 0880,13627.68,15472.0,72142.26999999999,0880,42.2697402,-83.7470137
"Brehm Tower (aka Kellogg Expansion, BT, Kellogg Eye Center) - 5102",1094893.045,252234.0,9520809.0,5102,42.2882581,-83.7372608
Briarwood 1 - 8076,90654.85,17857.0,580626.8799999999,8076,42.2431,-83.74190999999999
Briarwood 10 - 8130,66714.04999999999,17299.0,423428.0,8130,42.2428573,-83.7508309
Briarwood 2 - 8030,66090.05,15924.0,419127.1,8030,42.24304559999999,-83.7428599
Briarwood 3 - 8065,27363.870000000003,10262.0,144393.30000000002,8065,42.2427663,-83.7442337
Briarwood 4 - 8042,44148.32,14063.0,262968.85,8042,42.2431547,-83.7450221
Briarwood 5 - 8016,33477.46000000001,9378.0,205790.5,8016,42.24312320000001,-83.74585189999999
Briarwood 9 - 8142,27834.16,5324.0,169203.93000000002,8142,42.243101,-83.7496692
Brighton Center for Specialty Care (aka BCSC) - 5239,767917.4099999999,299610.0,7033460.0,5239,42.5420501,-83.80155160000001
Brighton Health Center (aka BHC) - 5029,121040.31,40865.0,782004.4247999999,5029,42.5447814,-83.7952794
Buhl - 0210,21005.42,18971.0,182655.90000000002,0210,42.2836608,-83.73377219999999
Buhr Library (aka Buhr Building) - 0799,221139.66,187245.0,1959672.0,0799,42.2713366,-83.7473569
Burlington Spine Program - 5011,176012.94,84280.0,880492.7399999998,5011,42.2446375,-83.74489849999999
Burnam House - 0010,2624.64,3482.0,13774.210000000001,0010,42.2799544,-83.7212419
Bursley Hall (aka Burlodge) - 0555,289733.41,341601.0,2519421.0,0555,42.2937497,-83.720873
Burton Tower - 0155,16306.869999999999,20103.0,141799.0,0155,42.2795088,-83.7383413
CAMP DAVIS COMPLEX - 4572,4939.15,28321.0,62083.0,4572,43.286,-110.661
CENTRAL CAMPUS RESIDENTIAL DEVELOPMENT COMPLEX - 5618,37405.240000000005,0.0,325263.0,5618,42.2695762,-83.7451346
Campus Safety Services Building (aka CSSB) - 0742,157340.24,108063.0,1368176.0,0742,42.265239,-83.74395539999999
Canham Natatorium - 0718,213868.365,77639.0,1859725.0,0718,42.2694901,-83.7433517
Canton Health Center - 5019,113561.70999999999,51552.0,732653.49,5019,42.314004,-83.48882909999999
Cardiovascular Center (aka CVC) - 5109,1353926.4619999998,414649.0,14716592.0,5109,42.2831396,-83.7310911
Carver Building - 0854,14078.77,12184.0,71564.17,0854,42.2792571,-83.7428644
Central Campus Classroom Building (aka CCCB) - 5451,81168.38,108758.0,705812.0,5451,42.2780469,-83.733998
Chelsea Family Practice - 0348,53787.340000000004,25136.0,424240.0,0348,42.3083837,-84.01680850000001
Chemistry Building (aka Dow Laboratory) - 0158,2141927.885,545112.0,18625460.0,0158,42.2780097,-83.73657089999999
Child Care Center (aka CCC) - 0390,18405.14,14850.0,107426.20000000001,0390,42.2884118,-83.70777129999999
Children's & Women's (aka C & W) - 5173,2839611.498,1126305.0,30865343.0,5173,42.28203389999999,-83.72728819999999
Chrysler Center for Continuing Education (aka Chrysler Center) - 0443,53087.57,45310.0,461631.0,0443,42.2906273,-83.7166981
Clements Library - 0159,32394.920000000006,27257.0,281695.0,0159,42.2754392,-83.73799180000002
"Climate and Space Research (aka Space Research, CSRB) - 0441",165853.38999999998,105521.0,1442203.3800000001,0441,42.2943931,-83.7115146
Coliseum (aka Sports Coliseum) - 0710,27975.35,38404.0,171243.45,0710,42.2720226,-83.74596199999999
Commonwealth - MCARE Psych - 8100,66563.95999999999,43423.0,389743.11000000004,8100,42.3063254,-83.6969149
Cook Legal Research (aka Smith Underground) - 0184,180632.31499999997,212255.0,1570716.0,0184,42.273756,-83.7390719
Cooley (aka Cooley) - 0403,69054.26000000001,45717.0,600472.0700000001,0403,42.2906213,-83.7136452
Couzens Hall - 0053,138138.005,185523.0,1201200.0,0053,42.282037,-83.73292909999999
Crisler Center Complex - 0700,416969.57499999995,347619.0,3589624.0,0700,42.2650311,-83.74666839999999
"Dana Building (aka School for Environment and Sustainability, SEAS) - 0189",164762.19999999998,117139.0,1432715.0,0189,42.2773318,-83.73661229999999
Dean Road Transportation Facility - 5491,130289.0,74018.0,1132948.0,5491,42.2968109,-83.6960302
Dental School (aka Kellogg Institute) - 0162,1016041.22,428748.0,8835141.0,0162,42.2789274,-83.7364252
Detroit Observatory (aka Judy & Stanley Frankel Detroit Observatory) - 0198,8621.9,12785.0,74973.0,0198,42.2819717,-83.7316558
Dexter Family Practice - 8149,17174.329999999998,10065.0,95019.89,8149,42.3305939,-83.8760406
Dow Building (aka HH Dow) - 0447,413597.04,154365.0,3596496.14,0447,42.2930227,-83.7153666
E8 Church Street Parking Structure - 0257,43094.31,228214.0,374733.0,0257,42.275909,-83.73419319999999
Earl V Moore Building (aka School of Music) - 0440,264224.22,172639.0,2297601.9,0440,42.28973999999999,-83.7210724
East Ann Arbor Health Center (aka EAHC) - 0350,926261.9799999999,99932.0,8475572.0,0350,42.3079851,-83.67398270000001
East Hall (aka East Engineering) - 0166,518697.74,338897.0,4510415.0,0166,42.2757212,-83.7351922
East Mechanical Building (aka EMB) - 0306,291372.19,8182.0,2533671.0,0306,42.2829492,-83.73016969999999
East Quad (aka EQ) - 0054,434985.11000000004,333036.0,3782479.0000000005,0054,42.2729285,-83.73514589999999
Eisenhower Corporate Park West (aka ECPW) - 8072,341063.98,76726.0,2145439.45,8072,42.2452975,-83.7311198
Eisenhower Cp - 5070,42121.44,37606.0,228451.47999999995,5070,42.2481398,-83.7302959
Electrical Engineering and Computer Science (aka EECS) - 0448,1826487.02,305134.0,15882495.4,0448,42.2923152,-83.7136376
Engineering Research Building 1 (aka ERB1) - 0435,112766.51000000001,36033.0,980578.3200000001,0435,42.2895553,-83.71522809999999
Engineering Research Building 2 (aka ERB2) - 0436,88665.64,28332.0,771005.73,0436,42.2895553,-83.71522809999999
Engineering Research Support Building - 2505,5444.77,1432.0,27494.15,2505,42.3024222,-83.692639
Environmental and Water Resources (aka EWRE) - 0414,121313.51999999999,37129.0,1054900.0899999999,0414,42.2936579,-83.7129868
Executive Residence (aka Exec Res) - 0139,56734.44,50853.0,493343.0,0139,42.2730792,-83.7362461
Fgrl Bldg 5 - 5454,7943.719999999999,4886.0,38635.12,5454,42.2739378,-83.7467544
Field Hockey Complex - 5357,41631.19,18907.0,259498.07000000004,5357,42.2631228,-83.7408607
Fire Station - 0409,10341.49,21528.0,89926.0,0409,42.3003781,-83.7126892
First National Building - 5502,2391.5099999999998,1747.0,11912.98,5502,42.2802779,-83.748217
Fisher Baseball Stadium - 0733,60433.299999999996,30275.0,525507.0,0733,42.2680112,-83.74185159999999
Flecher Hall - 0055,12044.95,17985.0,66224.77,0055,42.2701781,-83.74276689999999
Ford Nuclear Reactor (aka NEL) - 0405,64803.27,20565.0,563507.0,0405,42.2910896,-83.7142918
Ford Robotics Building - 5418,252239.93000000002,144117.0,2193390.84,5418,42.29462669999999,-83.7094824
Francois-Xavier Bagnoud Building (aka FXB) - 0395,292167.4199999999,101812.0,2540586.13,0395,42.2936991,-83.7119203
GG Brown Laboratory - 0407,928857.32,290555.0,8077019.890000001,0407,42.2931762,-83.71372869999999
GINSBERG EDWARD AND ROSALIE BUILDING - 5507,6067.24,0.0,29990.4,5507,42.27180329999999,-83.7360391
Galleria Building - 5060,34601.38,17744.0,172748.25,5060,42.2748133,-83.73388829999999
George Edwin S. Reserve Complex (aka ES George) - 4401,4555.53,21227.0,16643.131,4401,42.4456458,-84.0181247
Gerald R Ford Library - 0446,104358.72,47077.0,907467.0,0446,42.2885973,-83.7122827
Gerstacker - 0437,288399.62,61387.0,2507822.56,0437,42.2895553,-83.71522809999999
Glick Al Field House - 5121,157865.11,107253.0,1372740.0,5121,42.2652171,-83.74111669999999
Golf Course Practice Range Bldg - 0749,15725.0,720.0,90858.53,0749,42.2548175,-83.7495012
"Gorguze Family Laboratory (aka Engineering Programs Building, EPB, Gorguze) - 0424",143874.49,80487.0,1251082.7000000002,0424,42.2936042,-83.7108286
Hamilton Square - 8054,8796.07,2460.0,44904.549999999996,8054,42.2788942,-83.74000629999999
Hartwig Administration Building - 0201,10798.84,14649.0,93903.0,0201,42.2688407,-83.7409342
Hatcher Library North (aka Graduate Library South) - 0185,124514.08000000002,195323.0,1082731.0,0185,42.2763342,-83.7379811
Hatcher Library South (aka Graduate Library South) - 0181,203441.31500000003,147674.0,1769055.0,0181,42.2763342,-83.7379811
Haven Hall - 0175,131454.44,123488.0,1143082.0,0175,42.2762833,-83.7396129
"Health Service (aka UHS, HS) - 0176",125683.51000000001,79177.0,1092900.0,0176,42.2796645,-83.7365693
Helen Newberry - 0062,12042.68,31304.0,104719.0,0062,42.2769295,-83.74155929999999
Henderson House - 0057,8693.419999999998,9329.0,44322.1,0057,42.2718445,-83.7318051
Hill Auditorium - 0177,161855.25,105565.0,1407437.0,0177,42.279076,-83.7390391
Hoover Ave Complex (aka Plant Complex) - 0800,232306.21,187585.0,2020054.0,0800,42.26720299999999,-83.7460942
Huron Bank - 0837,8282.89,4301.0,41624.36,0837,42.2788178,-83.7397979
Hutchins Hall - 0179,130090.05999999998,119856.0,1131218.0,0179,42.2741841,-83.7391713
Indoor Track Building - 0703,27740.75,69183.0,241224.0,0703,42.26701670000001,-83.7436211
Industrial & Operation Engineering (aka IOE) - 0429,87692.36,50214.0,762542.3899999999,0429,42.2910706,-83.7137245
Institute for Social Research (aka ISR Thompson) - 0145,307666.63999999996,226082.0,2675362.0,0145,42.2768586,-83.7435738
Institute of Continuing Legal Education (aka ICLE) - 0814,24358.97,12592.0,146727.72,0814,42.2685624,-83.74792649999999
Intercollegiate Soccer Stadium - 5247,27599.66,17382.0,168095.72999999998,5247,42.2527222,-83.747253
"Intramural Sports Building (aka IM Building, IMSB, Recreation) - 0719",136836.54,108676.0,1189883.0,0719,42.2694673,-83.7422564
"James and Anne Duderstadt Center (aka Dude, ITC, Library) - 0396",579829.085,240256.0,5041992.13,0396,42.2912754,-83.7156345
"Jeffries Hall (aka South Hall , Law School) - 5235",133214.4,103128.0,1158386.0,5235,42.2729116,-83.7397522
John Cook Law Quad Complex - 0109,110658.29,157711.0,962246.0,0109,42.2746485,-83.73944469999999
KMS Fusion Building - 8126,142541.54000000004,125908.0,1077016.5,8126,42.2344473,-83.7384865
Kahn Health Care Pavilion - 5440,829040.77,2296.0,7202950.5200000005,5440,42.28233160000001,-83.73236159999999
Keen Arena - 0732,40343.51,37261.0,350813.0,0732,42.2695209,-83.7410979
Kellogg Eye Center (aka KEC) - 0324,248236.35,81670.0,2158577.0,0324,42.2882581,-83.7372608
Kellogg Eye Center - Grand Blanc - 5393,16999.07,8021.0,83777.0,5393,42.9178751,-83.645966
Kelsey Museum (aka Archeology Museum) - 0178,56499.37,40574.0,491299.0,0178,42.2767298,-83.7413737
"Kresge Hall (aka KBL, Business Library) - 0137",145090.1,76731.0,1261653.0,0137,42.2731115,-83.736071
LSA Building (aka Literature Science and the Arts) - 0150,325947.935,156119.0,2834330.0,0150,42.27648689999999,-83.74143889999999
Lane Hall - 0183,49278.649999999994,39993.0,310251.66,0183,42.2799135,-83.74125839999999
Lay Automotive Lab (aka Lay Auto) - 0400,206263.33,63286.0,1793594.3399999999,0400,42.2918673,-83.7138942
Leinweber - 5504,99548.70000000001,1200.0,865640.89,5504,42.29301110000001,-83.71728900000001
Liberty Centre - 0887,26606.7,19388.0,112014.04000000001,0887,42.2792429,-83.7421514
Lipsey Student Publications Building - 0105,9749.93,14829.0,84782.0,0105,42.2770771,-83.7423207
Livonia Center for Specialty Care - 8096,48795.63,5850.0,282618.78,8096,42.4326537,-83.43272069999999
Livonia Health Center - 8155,21763.57,11130.0,130063.98000000001,8155,42.438784,-83.376126
Lorch Hall - 0154,74208.47000000002,89808.0,645291.0,0154,42.27372889999999,-83.7374494
Lurie Bell Tower (aka Clock Tower) - 0394,15667.49,11452.0,136239.0,0394,42.2920035,-83.71622599999999
"Lurie Biomedical Engineering (aka LBME, BME) - 0406",225951.87,65028.0,1964798.6800000002,0406,42.2888497,-83.71381079999999
Lurie Engineering Center - 0397,96130.21500000001,53878.0,835915.09,0397,42.291525,-83.71383689999999
M15 Medical Center Parking Structure - 0300,42349.64,340052.0,491904.0,0300,42.28560179999999,-83.7318196
M18 Medical Center Parking Structure - 0315,76440.28,684123.0,664698.0,0315,42.2853435,-83.7310198
M22 Simpson Circle Parking Structure - 0320,93300.18000000001,467374.0,811306.0,0320,42.282068,-83.72824159999999
M5 Catherine Parking Structure - 0258,33949.05,140168.0,295209.0,0258,42.2829323,-83.73478659999999
M61 Glen Ave Parking Structure - 0331,23119.41,332918.0,227725.44,0331,42.283942,-83.736019
M85 Cardio Vascular Center Parking Structure - 5146,45403.02,168596.0,394809.0,5146,42.2823503,-83.7318305
M86 Ann Street Parking Structure - 5132,33334.80500000001,189202.0,289868.0,5132,42.2824559,-83.7347652
M93 Wall St. East Parking Structure - 5193,57230.369999999995,249962.0,364012.0,5193,42.288418,-83.7344449
MCity - 5381,7718.02,4463.0,67113.0,5381,42.2980353,-83.70202019999999
MCity Storage - 5442,5368.66,3305.0,46684.0,5442,42.2974857,-83.7042951
Mail Service Building - 0816,7877.82,5903.0,44687.68000000001,0816,42.2682808,-83.74785539999999
Martha Cook - 0052,32061.65,71974.0,278797.0,0052,42.274525,-83.73792329999999
Mary Markley Hall - 0060,264866.62,285877.0,2303188.0,0060,42.2808891,-83.7288791
"Mary Sue Coleman Hall (aka LSI, Life Sciences Institute, MSCH) - 5036",1399363.17,298400.0,12168375.0,5036,42.2796388,-83.73418559999999
Mason Hall - 0197,148346.45,136044.0,1289969.0,0197,42.2767582,-83.7407539
"Matthaei Botanical Gardens Complex (aka Botanical Gardens, Botan, MBGNA) - 0982",85153.48999999999,91085.0,651662.72,0982,42.2996921,-83.66200180000001
Matthaei Botanical Gardens Supt Residence - 0985,2406.25,2928.0,11293.65,0985,42.2996921,-83.66200180000001
Mcity Auxiliary Building - 2502,10766.59,2893.0,56753.64,2502,42.30131,-83.6966166
Med Inn (aka MIB) - 0308,168798.37,119437.0,1467812.0,0308,42.2827998,-83.7304379
Medical Professional Building (aka MPB) - 0319,47411.25,37298.0,412272.0,0319,42.2827495,-83.730322
"Medical Science Unit 1 (aka Med Sci 1, MS1) - 0190",812760.42,298955.0,7067481.949999999,0190,42.2839264,-83.7322658
"Medical Science Unit 2 (aka Med Sci 2, MS2) - 0200",1082231.0049999997,333599.0,9410704.64,0200,42.2835033,-83.7337068
Medical Sciences Research Bld1 (aka MSRB 1) - 0223,651759.93,144732.0,5667477.4,0223,42.2849017,-83.7324945
Medical Sciences Research Bld2 (aka MSRB 2) - 0213,641097.4500000001,163832.0,5574760.720000001,0213,42.2849017,-83.7324945
Medical Sciences Research Bld3 (aka MSRB 3) - 0229,972737.22,217818.0,8458584.440000001,0229,42.2849017,-83.7324945
"Michigan League (aka Theater, Michigan League, LEAG) - 0191",167723.14999999997,130839.0,1458462.0,0191,42.2793182,-83.7377271
Michigan News - 0222,4084.1,7811.0,35514.0,0222,42.277461,-83.7422835
Michigan Square - 0819,13969.710000000001,14157.0,66983.98000000001,0819,42.27920779999999,-83.74477310000002
Michigan Stadium Complex - 0711,1094840.285,577124.0,9520350.0,0711,42.2660981,-83.7484659
Michigan Union (aka Union) - 0120,339390.17000000004,262717.0,2951218.9999999995,0120,42.27522,-83.7413201
Mitchell Field (aka Mitchell Recreation Fields) - 2500,54627.990000000005,1440.0,326984.92000000004,2500,42.2855135,-83.72190599999999
Modern Languages Building (aka MLB) - 0207,168165.87,135378.0,1462312.0,0207,42.2798442,-83.7390533
Modular Aoss Newcomb Tract Facility - 5090,879.4,1404.0,2867.01,5090,42.416465,-83.89976899999999
Mosher-Jordan Hall (aka MOJO) - 0061,498893.95,191152.0,4338208.0,0061,42.2797959,-83.7323653
Munger Graduate Residence - 5369,331754.26999999996,390215.0,2884820.0,5369,42.2747975,-83.7437152
N13 Fletcher Parking Structure - 0254,71938.49,387276.0,625552.0,0254,42.2801878,-83.73646190000001
N26 Palmer Parking Structure - 0263,150982.34000000003,391303.0,1312890.0000000002,0263,42.2801218,-83.7345826
N4 Thayer Street Parking Structure - 0259,12698.419999999998,164936.0,110421.0,0259,42.27975,-83.7399337
NCRC Building 28 - 5264,370292.78,131476.0,0.0,5264,42.2998184,-83.7049715
NCRC Building 550 - 5282,265654.45,236634.0,2384880.0,5282,42.3003717,-83.70197859999999
Naval Architecture and Marine Engineering (aka NAME) - 0415,148298.59000000003,47002.0,1289552.62,0415,42.2930703,-83.7091513
New Ccrb - 5445,42752.149999999994,0.0,371758.0,5445,42.278294,-83.73275029999999
New Pharmacy Building - 5492,81294.59000000001,500.0,532415.53,5492,42.2816111,-83.73680590000001
Nicholas Arboretum Residence Complex - 0005,2213.62,3921.0,10506.16,0005,42.278734,-83.723292
"North Campus Administrative Complex (aka NCAC, ""Toaster"") - 0399",231396.56,129114.0,2012144.0,0399,42.2964028,-83.702895
"North Campus Auxiliary Service Building (aka NCASB, Data Center) - 5223",1081257.46,54428.0,9402239.0,5223,42.2921018,-83.70708599999999
North Campus Ground Svc Facility - 2514,28937.33,28246.0,251629.0,2514,42.2922422,-83.7077322
North Campus Housing Service Building - 0449,12850.68,31855.0,111745.0,0449,42.297922,-83.695437
"North Campus Recreation Building (aka NCRB, North Rec) - 0427",127054.54,67512.0,1104821.98,0427,42.2955073,-83.7201345
North Campus Research Complex (aka NCRC) - 5273,3006249.8200000003,1562673.0,31515783.490000002,5273,42.2998184,-83.7049715
North Campus Service Building #1 - 0418,47417.27,23191.0,412324.0,0418,42.2967869,-83.69778629999999
North Campus Storage Building - 0430,10240.050000000001,45750.0,89044.0,0430,42.2982355,-83.69674599999999
North Campus Support Facility (Eco Pod) - 5334,357388.71,2529.0,3107728.0,5334,42.2983945,-83.7016987
"North Quad (aka North Quad, NQ) - 5177",394022.55999999994,388563.0,3426282.9999999995,5177,42.2806065,-83.7406428
Northville Health Center - 5341,248870.58,102228.0,2033794.0,5341,42.4222724,-83.43773689999999
Northwood Community Center - 0600,16739.39,13744.0,145560.0,0600,42.2973493,-83.70907849999999
Northwood I Complex (aka NW1) - 0450,29347.189999999995,66104.0,255193.0,0450,42.2957065,-83.714168
Northwood II Complex (aka NW2) - 0457,83094.51000000001,184640.0,722561.0,0457,42.297753,-83.71381509999999
Northwood IV Complex (aka NW4) - 0601,156792.15999999997,529589.0,1363410.0,0601,42.29674,-83.70989999999999
Northwood V Apartments (aka NW5) - 2701,184490.13000000003,559838.0,1604262.0,2701,42.2946648,-83.70055719999999
Observatory Lodge (aka Old Kinesiology) - 0851,20559.480000000003,30964.0,121245.17000000001,0851,42.280197,-83.7305806
Oosterbaan Bennie Field House - 0704,81922.20000000001,89001.0,712367.0,0704,42.2658933,-83.742351
Osborn Chase S. Reserve Complex - 4431,661.1600000000001,5922.0,356.0,4431,46.4838576,-84.2829482
Oxford Commerce Park OR Mock Up - 5353,990.54,6192.0,5102.129999999999,5353,42.2275661,-83.7429877
Oxford Houses Complex (Buildings #40-47) - 0040,104473.08,120842.0,884608.0,0040,42.274901,-83.72570449999999
Oxford Warehouse (aka Ellsworth Laundry Depot) - 5332,13649.81,19952.0,70146.6,5332,42.2273931,-83.7439018
PRV RED BUILDING - 5602,3957.64,7200.0,44113.0,5602,43.0259378,-102.5243131
Palmer Commons - 5047,176833.185,106471.0,1537680.0,5047,42.2806885,-83.73387939999999
Palmer Field Temp Rec Facility - 5510,64651.38999999999,23854.0,562186.0,5510,42.2807741,-83.73282019999999
Parking Services Bldg - 2506,53713.51,48588.0,467074.00000000006,2506,42.2985812,-83.69787819999999
Performance Center - 5399,299109.66,300944.0,2448012.0,5399,42.251807,-83.74185949999999
"Perry Building (aka Perry, ISR-Perry) - 0890",170266.06,117904.0,1101929.62,0890,42.2744606,-83.7452996
Pharmacy - 0230,193714.48,56772.0,1684474.0,0230,42.277565,-83.73541670000002
Phoenix Memorial Laboratory (aka Phoenix) - 0404,344292.26499999996,46653.0,2993845.6199999996,0404,42.2910896,-83.7142918
Physical Properties Building - 0807,6119.47,7183.0,53213.0,0807,42.26720299999999,-83.7460942
Pierpont Commons (aka PIER) - 0442,210323.64,90488.0,1828900.9999999998,0442,42.2911258,-83.7174637
Plant Service Building - 0261,21884.269999999997,15183.0,190298.0,0261,42.2805252,-83.7351673
Portage Lk Observatory Complex - 3425,5283.9400000000005,3364.0,25620.149999999998,3425,42.3922918,-83.9360651
Postma Family Clubhouse - 5385,58394.259999999995,25268.0,348149.67,5385,42.25916429999999,-83.7451466
Power Center - 0180,79278.92000000001,73088.0,689382.0,0180,42.2807444,-83.7360898
Presidents Residence (aka President's House) - 0203,18252.239999999998,14705.0,158715.0,0203,42.2753807,-83.7384888
REC SPORTS ADV LEADERSHIP RENTAL CTR OFFICES TRLR - 5569,19301.550000000003,450.0,113463.89,5569,42.273593,-83.746004
RP HOUSING MATT BOT GNDS HOUSE - 0976,3316.0899999999997,3650.0,17226.56,0976,42.3062453,-83.66248829999999
Rackham - 0172,94111.29999999999,157957.0,818359.0,0172,42.2806637,-83.738286
Rackham Educational Memorial - 1501,58374.56,71847.0,410655.0,1501,42.3582598,-83.06313120000002
Radio Broadcasting Station Complex - 3414,49887.770000000004,3780.0,413026.30999999994,3414,42.40468000000001,-83.916838
Radrick Farms Caretakers House - 0955,14725.84,8572.0,77568.62999999999,0955,42.2830017,-83.6659583
Radrick Farms Golf Clubhouse - 0963,24534.13,10725.0,134307.79,0963,42.2786544,-83.65282719999999
Radrick Farms Recreation Complex - 0953,2315.01,2587.0,11761.53,0953,42.2898304,-83.6654909
Randall Lab (aka Homer Neal Laboratory) - 0208,805303.38,216607.0,7002638.0,0208,42.2761682,-83.7365075
"Research Museums Center (aka RMC, Varsity Drive Building) - 0812",274139.19,153375.0,2459114.0,0812,42.2362026,-83.7287806
Revelli Hall (aka Marching Band Building) - 0813,25355.55,15620.0,220483.0,0813,42.2692477,-83.74470199999999
"Rogel Cancer Center (aka CC, Cancer Geriatrics Center, CGC) - 0301",1081690.71,278072.0,12417096.0,0301,42.2827172,-83.7267932
"Ross School of Business (aka Ross, RSB) - 5188",498717.32999999996,292008.0,4336672.0,5188,42.2727776,-83.737529
Ross Stephen M Academic Center - 5120,71335.88,45356.0,620312.0,5120,42.2684925,-83.7410392
Ruthven (aka Ruthven Administration) - 0193,127753.96,152530.0,1110904.0,0193,42.2783824,-83.73444119999999
S Main Ortho - Huron Valley Professional - 8112,26266.440000000002,9020.0,157441.66,8112,42.255575,-83.7507345
S8 Hill Parking Structure - 0253,34560.75,151175.0,300528.0,0253,42.2722312,-83.7371591
SOUTH HOUSE - 5599,509.62,2400.0,2756.0,5599,43.0640598,-102.5682263
Saginaw Forest Residence Complex - 3541,1064.3300000000002,1249.0,4798.96,3541,42.2703128,-83.8069792
Saline Health Center - 8121,29962.940000000002,8924.0,163676.03,8121,42.1841534,-83.7823872
Salt Storage Building - 0268,5583.85,2385.0,23890.519999999997,0268,42.2855818,-83.73757169999999
Schembechler Glenn E Hall - 0705,195502.41500000004,91057.0,1700021.0,0705,42.2676856,-83.7409971
School of Education (aka Marsal Family School of Education) - 0221,489686.39,214981.0,4014121.7299999995,0221,42.273571,-83.7364037
School of Information North (aka SIN) - 0420,156633.36,30930.0,1362029.23,0420,42.2889531,-83.7144264
"School of Kinesiology (aka Natural Sciences Building, Nat Sci, Kraus) - 0211",317548.11,228460.0,2761288.0,0211,42.2781689,-83.73892699999999
School of Nursing (New Building) (aka 426 N Ingalls) - 5347,94403.95000000001,80322.0,820904.0,5347,42.2850942,-83.73855669999999
"School of Nursing (Old Building) (aka 400 N Ingalls, NIB) - 0333",161835.77000000002,142005.0,1594078.08,0333,42.28399890000001,-83.7377703
"School of Public Health I (aka SPH1, Henry Vaughan) - 0204",529652.5,210800.0,4605674.0,0204,42.2808145,-83.7303297
"School of Public Health II (aka SPH 2, Thomas Francis) - 0234",212529.31,171543.0,1848081.0,0234,42.2802247,-83.7300132
School of Social Work (aka SSW) - 0219,245380.71999999997,143675.0,2133745.2700000005,0219,42.2746694,-83.7364652
Seismograph Station - 0999,267.39,576.0,274.5,0999,42.31837489999999,-83.6614045
"Shapiro Library (aka UGLi, Undergraduate Library) - 0227",234671.69,175894.0,2040623.0,0227,42.27561499999999,-83.7371826
Shared Services Center - 5288,112296.7,52682.0,692666.11,5288,42.2387603,-83.7320408
Sheep Research Facility Complex - 0942,14013.3,13048.0,72917.3,0942,42.29090799999999,-83.656989
Shepherd Womens Gymnastic - 5077,36922.88,22837.0,228093.15999999997,5077,42.252546,-83.7420124
Simpson - 0212,21428.63,17769.0,186336.0,0212,42.281894,-83.7311148
South Quad (aka SQ) - 0063,512609.52999999997,371519.0,4457474.0,0063,42.2736688,-83.7421033
Stamps Auditorium - 5224,13039.04,13488.0,113383.0,5224,42.2919196,-83.71749969999999
Stearns Building - 0445,15712.57,18261.0,90291.73000000001,0445,42.2953942,-83.7260005
Stinchfield Woods Complex - 3410,1765.0700000000002,11934.0,7793.47,3410,42.4082497,-83.91996639999999
Stockwell Hall - 0064,101574.56,145204.0,883257.0,0064,42.2787978,-83.73146849999999
Student Activities Building (aka SAB) - 0215,219981.90000000002,119626.0,1912886.0,0215,42.27672949999999,-83.7425712
Survival Flight Helicopter Hanger - 8036,12480.93,26272.0,61720.369999999995,8036,42.225632,-83.7445461
Tappan Hall - 0216,45737.8,37576.0,397720.0,0216,42.2755455,-83.7392696
Taubman (aka THC) - 0317,581821.04,410082.0,6712840.0,0317,42.2853456,-83.73104169999999
"Taubman Library (aka THSL, Taub Lib) - 0209",151576.88,143973.0,1318059.67,0209,42.2834941,-83.7343702
Tisch Tennis Bldg - 0738,89395.11,89026.0,575227.4299999999,0738,42.2535144,-83.7434267
"Towsley (aka Towsley, CEC) - 0313",57397.54,52332.0,499109.0,0313,42.2820308,-83.72823989999999
Towsley Children's House - 5240,42512.87000000001,25428.0,264981.26,5240,42.27340820000001,-83.73359239999999
Transportation Services Building - 0808,38219.229999999996,40633.0,332341.0,0808,42.2665237,-83.7448435
Traverwood 1 - Turner Senior Resource - 8162,25846.61,17086.0,125848.47,8162,42.3019927,-83.7137103
Trotter Multicultural Center - 5413,23984.18,20719.0,208558.0,5413,42.2770601,-83.7411132
"U-M Museum of Art (aka UMMA, Memorial Hall) - 0151",291044.88,99304.0,2530825.0,0151,42.2754052,-83.7400012
UH South 1 (aka Old Women's) - 0309,28370.5,67494.0,246700.0,0309,42.2827184,-83.7294416
UM Transportation Research Institute (aka UMTRI) - 0444,87161.965,81529.0,757930.0,0444,42.297728,-83.703023
Undergraduate Science Building (aka USB) - 5046,282351.3400000001,141749.0,2455229.0,5046,42.2798988,-83.73530579999999
University Hospital (aka UH) - 0316,6016058.02,1721070.0,69190016.0,0316,42.2827172,-83.7267932
University Hospital Education Center (aka UHEC) - 0327,8020.680000000001,8349.0,39810.399999999994,0327,42.2854418,-83.73672289999999
Victor Vaughan (aka VV) - 0065,30705.93,51518.0,267008.0,0065,42.2836793,-83.7350565
W3 Thompson Parking Structure - 0255,72614.09999999999,365996.0,594624.0,0255,42.2754613,-83.74362239999999
Walgreen Drama Center - 5059,133379.9,84149.0,1159824.98,5059,42.2919196,-83.71749969999999
Wallace House - 8067,2932.34,7863.0,14012.64,8067,42.2746001,-83.72643029999999
Weidenbach Hall - 0731,25791.599999999995,23229.0,224275.0,0731,42.2694294,-83.7414378
"Weill Hall (aka Gerald R. Ford School of Public Policy, Joan & Sanford) - 5101",113438.97,97989.0,986426.0,5101,42.27229759999999,-83.7403873
Weiser Hall (aka Dennison) - 0165,125138.29,145518.0,1088159.0,0165,42.2768901,-83.734888
West Ann Arbor Health Center Parkland PLZ - 5388,162906.24,75260.0,1297489.3800000001,5388,42.2797369,-83.8151056
West Hall - 0167,194114.04,166528.0,1687948.0,0167,42.2757341,-83.73621589999999
West Quad (aka WQ) - 0066,277837.25,386265.0,2415976.0,0066,42.2748013,-83.7428968
West Shore Urology - 5428,14652.730000000001,10727.0,72217.0,5428,43.2070064,-86.21251339999999
Willow Run Complex - 2201,10788.630000000001,18570.0,58328.0,2201,42.2424402,-83.49968919999999
Wolverine Tower (aka WoTo) - 8090,317900.51,224981.0,2287194.0,8090,42.243225,-83.73724059999999
Wyly Hall - 0135,93062.93499999998,82855.0,809243.0,0135,42.2724266,-83.7360334
Yost Ice Arena - 0709,268334.78500000003,124755.0,2333346.0,0709,42.2675741,-83.7410082
Ypsi Kellogg - River Place Offices - 5340,30964.0,7124.0,191528.31,5340,42.2593423,-83.64476909999999
